$GPGGA,072402.994,4340.4762,N,00720.3404,E,1,06,1.2,3.53,M,,,,*3A
$GPRMC,072402.994,A,4340.4762,N,00720.3404,E,1.26,238.13,280714,,*00
$GPGGA,072412.000,4340.4753,N,00720.3373,E,1,06,1.2,3.81,M,,,,*35
$GPRMC,072412.000,A,4340.4753,N,00720.3373,E,0.89,245.92,280714,,*07
$GPGGA,072422.000,4340.4741,N,00720.3339,E,1,06,1.2,4.08,M,,,,*3D
$GPRMC,072422.000,A,4340.4741,N,00720.3339,E,0.68,223.45,280714,,*0C
$GPGGA,072432.000,4340.4727,N,00720.3300,E,1,07,1.0,4.20,M,,,,*3F
$GPRMC,072432.000,A,4340.4727,N,00720.3300,E,1.26,230.96,280714,,*00
$GPGGA,072442.000,4340.4716,N,00720.3257,E,1,07,1.0,4.30,M,,,,*38
$GPRMC,072442.000,A,4340.4716,N,00720.3257,E,1.57,247.87,280714,,*00
$GPGGA,072452.000,4340.4703,N,00720.3218,E,1,07,1.0,4.29,M,,,,*3E
$GPRMC,072452.000,A,4340.4703,N,00720.3218,E,1.34,232.80,280714,,*0E
$GPGGA,072502.000,4340.4691,N,00720.3180,E,1,08,1.0,4.24,M,,,,*30
$GPRMC,072502.000,A,4340.4691,N,00720.3180,E,0.87,191.18,280714,,*00
$GPGGA,072512.000,4340.4675,N,00720.3160,E,1,08,1.0,3.92,M,,,,*3F
$GPRMC,072512.000,A,4340.4675,N,00720.3160,E,0.49,239.17,280714,,*09
$GPGGA,072522.000,4340.4660,N,00720.3129,E,1,08,1.0,3.47,M,,,,*3D
$GPRMC,072522.000,A,4340.4660,N,00720.3129,E,1.24,236.05,280714,,*05
$GPGGA,072532.000,4340.4648,N,00720.3095,E,1,07,1.0,3.06,M,,,,*3A
$GPRMC,072532.000,A,4340.4648,N,00720.3095,E,0.82,247.45,280714,,*07
$GPGGA,072542.000,4340.4634,N,00720.3061,E,1,07,1.0,2.71,M,,,,*3C
$GPRMC,072542.000,A,4340.4634,N,00720.3061,E,0.76,230.24,280714,,*0C
$GPGGA,072552.000,4340.4620,N,00720.3033,E,1,07,1.0,2.13,M,,,,*3B
$GPRMC,072552.000,A,4340.4620,N,00720.3033,E,0.91,230.95,280714,,*0C
$GPGGA,072602.000,4340.4609,N,00720.3000,E,1,07,1.0,1.81,M,,,,*3E
$GPRMC,072602.000,A,4340.4609,N,00720.3000,E,1.03,253.98,280714,,*03
$GPGGA,072612.000,4340.4599,N,00720.2970,E,1,07,1.0,1.42,M,,,,*35
$GPRMC,072612.000,A,4340.4599,N,00720.2970,E,1.03,264.01,280714,,*03
$GPGGA,072622.000,4340.4590,N,00720.2938,E,1,07,1.0,1.17,M,,,,*33
$GPRMC,072622.000,A,4340.4590,N,00720.2938,E,0.91,274.01,280714,,*0E
$GPGGA,072632.000,4340.4580,N,00720.2903,E,1,07,1.0,0.94,M,,,,*31
$GPRMC,072632.000,A,4340.4580,N,00720.2903,E,1.28,235.22,280714,,*01
$GPGGA,072642.000,4340.4572,N,00720.2862,E,1,07,1.0,0.71,M,,,,*36
$GPRMC,072642.000,A,4340.4572,N,00720.2862,E,1.26,233.16,280714,,*02
$GPGGA,072652.000,4340.4563,N,00720.2831,E,1,07,1.0,0.65,M,,,,*34
$GPRMC,072652.000,A,4340.4563,N,00720.2831,E,0.74,226.78,280714,,*0F
$GPGGA,072702.000,4340.4555,N,00720.2802,E,1,07,1.0,0.51,M,,,,*32
$GPRMC,072702.000,A,4340.4555,N,00720.2802,E,1.19,257.69,280714,,*02
$GPGGA,072712.000,4340.4545,N,00720.2768,E,1,07,1.0,0.45,M,,,,*34
$GPRMC,072712.000,A,4340.4545,N,00720.2768,E,1.03,261.46,280714,,*02
$GPGGA,072722.000,4340.4534,N,00720.2730,E,1,07,1.0,1.13,M,,,,*3E
$GPRMC,072722.000,A,4340.4534,N,00720.2730,E,0.86,235.98,280714,,*04
$GPGGA,072732.000,4340.4523,N,00720.2692,E,1,07,1.0,1.37,M,,,,*36
$GPRMC,072732.000,A,4340.4523,N,00720.2692,E,0.66,274.01,280714,,*01
$GPGGA,072742.000,4340.4511,N,00720.2654,E,1,07,1.0,1.78,M,,,,*31
$GPRMC,072742.000,A,4340.4511,N,00720.2654,E,1.13,244.00,280714,,*0C
$GPGGA,072752.000,4340.4499,N,00720.2618,E,1,07,1.0,2.18,M,,,,*3C
$GPRMC,072752.000,A,4340.4499,N,00720.2618,E,0.87,278.84,280714,,*0B
$GPGGA,072802.000,4340.4486,N,00720.2580,E,1,07,1.0,2.40,M,,,,*37
$GPRMC,072802.000,A,4340.4486,N,00720.2580,E,1.03,252.52,280714,,*03
$GPGGA,072812.000,4340.4472,N,00720.2540,E,1,07,1.0,2.19,M,,,,*3D
$GPRMC,072812.000,A,4340.4472,N,00720.2540,E,1.17,240.05,280714,,*01
$GPGGA,072822.000,4340.4456,N,00720.2501,E,1,07,1.0,2.07,M,,,,*32
$GPRMC,072822.000,A,4340.4456,N,00720.2501,E,1.36,241.12,280714,,*05
$GPGGA,072832.000,4340.4441,N,00720.2459,E,1,07,1.0,2.08,M,,,,*36
$GPRMC,072832.000,A,4340.4441,N,00720.2459,E,1.05,228.39,280714,,*08
$GPGGA,072842.000,4340.4428,N,00720.2421,E,1,07,1.0,2.14,M,,,,*3C
$GPRMC,072842.000,A,4340.4428,N,00720.2421,E,1.77,246.29,280714,,*03
$GPGGA,072852.000,4340.4416,N,00720.2381,E,1,07,1.0,2.19,M,,,,*30
$GPRMC,072852.000,A,4340.4416,N,00720.2381,E,1.34,261.99,280714,,*0B
$GPGGA,072902.000,4340.4403,N,00720.2346,E,1,07,1.0,1.79,M,,,,*3E
$GPRMC,072902.000,A,4340.4403,N,00720.2346,E,0.45,232.80,280714,,*09
$GPGGA,072912.000,4340.4390,N,00720.2304,E,1,07,1.0,1.76,M,,,,*3B
$GPRMC,072912.000,A,4340.4390,N,00720.2304,E,0.80,236.30,280714,,*05
$GPGGA,072922.000,4340.4361,N,00720.2264,E,1,07,1.0,1.71,M,,,,*36
$GPRMC,072922.000,A,4340.4361,N,00720.2264,E,2.10,200.07,280714,,*05
$GPGGA,072932.000,4340.4297,N,00720.2332,E,1,07,1.0,1.54,M,,,,*3A
$GPRMC,072932.000,A,4340.4297,N,00720.2332,E,4.30,122.28,280714,,*04
$GPGGA,072942.000,4340.4256,N,00720.2477,E,1,07,1.0,1.05,M,,,,*32
$GPRMC,072942.000,A,4340.4256,N,00720.2477,E,4.18,104.24,280714,,*0A
$GPGGA,072952.000,4340.4260,N,00720.2640,E,1,07,1.0,0.97,M,,,,*3A
$GPRMC,072952.000,A,4340.4260,N,00720.2640,E,4.12,72.76,280714,,*35
$GPGGA,073002.000,4340.4282,N,00720.2783,E,1,07,1.0,0.69,M,,,,*34
$GPRMC,073002.000,A,4340.4282,N,00720.2783,E,3.91,117.58,280714,,*08
$GPGGA,073012.000,4340.4211,N,00720.2925,E,1,07,1.0,0.35,M,,,,*34
$GPRMC,073012.000,A,4340.4211,N,00720.2925,E,4.67,125.76,280714,,*02
$GPGGA,073022.000,4340.4186,N,00720.2978,E,1,07,1.0,0.44,M,,,,*34
$GPRMC,073022.000,A,4340.4186,N,00720.2978,E,0.27,233.94,280714,,*0C
$GPGGA,073032.000,4340.4183,N,00720.2950,E,1,07,1.0,0.96,M,,,,*35
$GPRMC,073032.000,A,4340.4183,N,00720.2950,E,1.26,257.90,280714,,*04
$GPGGA,073042.000,4340.4165,N,00720.2908,E,1,07,1.0,1.42,M,,,,*3F
$GPRMC,073042.000,A,4340.4165,N,00720.2908,E,1.34,225.78,280714,,*06
$GPGGA,073052.000,4340.4151,N,00720.2870,E,1,07,1.0,1.73,M,,,,*35
$GPRMC,073052.000,A,4340.4151,N,00720.2870,E,1.05,242.43,280714,,*05
$GPGGA,073102.000,4340.4137,N,00720.2831,E,1,07,1.0,1.97,M,,,,*3E
$GPRMC,073102.000,A,4340.4137,N,00720.2831,E,0.91,235.71,280714,,*09
$GPGGA,073112.000,4340.4121,N,00720.2789,E,1,07,1.0,2.22,M,,,,*39
$GPRMC,073112.000,A,4340.4121,N,00720.2789,E,1.30,255.56,280714,,*0A
$GPGGA,073122.000,4340.4102,N,00720.2749,E,1,07,1.0,2.48,M,,,,*3B
$GPRMC,073122.000,A,4340.4102,N,00720.2749,E,1.26,215.71,280714,,*02
$GPGGA,073132.000,4340.4086,N,00720.2709,E,1,07,1.0,2.12,M,,,,*3C
$GPRMC,073132.000,A,4340.4086,N,00720.2709,E,0.80,266.45,280714,,*04
$GPGGA,073142.000,4340.4069,N,00720.2674,E,1,07,1.0,1.93,M,,,,*3B
$GPRMC,073142.000,A,4340.4069,N,00720.2674,E,0.93,224.96,280714,,*03
$GPGGA,073152.000,4340.4062,N,00720.2641,E,1,07,1.0,1.68,M,,,,*33
$GPRMC,073152.000,A,4340.4062,N,00720.2641,E,0.78,287.12,280714,,*0F
$GPGGA,073202.000,4340.4051,N,00720.2607,E,1,07,1.0,2.06,M,,,,*3C
$GPRMC,073202.000,A,4340.4051,N,00720.2607,E,0.78,230.33,280714,,*04
$GPGGA,073212.000,4340.4043,N,00720.2574,E,1,07,1.0,2.36,M,,,,*3A
$GPRMC,073212.000,A,4340.4043,N,00720.2574,E,0.93,258.59,280714,,*06
$GPGGA,073222.000,4340.4033,N,00720.2545,E,1,07,1.0,2.51,M,,,,*3D
$GPRMC,073222.000,A,4340.4033,N,00720.2545,E,0.51,250.11,280714,,*0A
$GPGGA,073232.000,4340.4023,N,00720.2515,E,1,07,1.0,2.47,M,,,,*3F
$GPRMC,073232.000,A,4340.4023,N,00720.2515,E,1.07,230.28,280714,,*01
$GPGGA,073242.000,4340.4010,N,00720.2478,E,1,07,1.0,2.46,M,,,,*33
$GPRMC,073242.000,A,4340.4010,N,00720.2478,E,1.34,238.26,280714,,*0A
$GPGGA,073252.000,4340.4003,N,00720.2443,E,1,07,1.0,2.70,M,,,,*3D
$GPRMC,073252.000,A,4340.4003,N,00720.2443,E,0.72,233.71,280714,,*0B
$GPGGA,073302.000,4340.3994,N,00720.2414,E,1,07,1.0,3.14,M,,,,*38
$GPRMC,073302.000,A,4340.3994,N,00720.2414,E,0.64,243.09,280714,,*02
$GPGGA,073312.000,4340.3984,N,00720.2384,E,1,07,1.0,3.42,M,,,,*35
$GPRMC,073312.000,A,4340.3984,N,00720.2384,E,0.76,201.26,280714,,*04
$GPGGA,073322.000,4340.3979,N,00720.2354,E,1,07,1.0,3.50,M,,,,*3A
$GPRMC,073322.000,A,4340.3979,N,00720.2354,E,0.95,279.53,280714,,*08
$GPGGA,073332.000,4340.3969,N,00720.2324,E,1,07,1.0,3.39,M,,,,*32
$GPRMC,073332.000,A,4340.3969,N,00720.2324,E,0.89,265.23,280714,,*08
$GPGGA,073342.000,4340.3961,N,00720.2295,E,1,07,1.0,2.89,M,,,,*3C
$GPRMC,073342.000,A,4340.3961,N,00720.2295,E,0.78,265.58,280714,,*0E
$GPGGA,073352.000,4340.3953,N,00720.2280,E,1,07,1.0,2.76,M,,,,*38
$GPRMC,073352.000,A,4340.3953,N,00720.2280,E,0.08,141.60,280714,,*03
$GPGGA,073402.000,4340.3953,N,00720.2276,E,1,07,1.0,3.07,M,,,,*34
$GPRMC,073402.000,A,4340.3953,N,00720.2276,E,0.23,229.21,280714,,*09
$GPGGA,073412.000,4340.3958,N,00720.2289,E,1,07,1.0,3.02,M,,,,*3B
$GPRMC,073412.000,A,4340.3958,N,00720.2289,E,0.16,225.83,280714,,*01
$GPGGA,073422.000,4340.3952,N,00720.2276,E,1,07,1.0,3.64,M,,,,*32
$GPRMC,073422.000,A,4340.3952,N,00720.2276,E,0.80,212.22,280714,,*08
$GPGGA,073432.000,4340.3947,N,00720.2258,E,1,07,1.0,3.60,M,,,,*3F
$GPRMC,073432.000,A,4340.3947,N,00720.2258,E,0.33,341.13,280714,,*0C
$GPGGA,073442.000,4340.3947,N,00720.2253,E,1,07,1.0,4.78,M,,,,*3D
$GPRMC,073442.000,A,4340.3947,N,00720.2253,E,0.54,105.16,280714,,*06
$GPGGA,073452.000,4340.3938,N,00720.2241,E,1,07,1.0,5.25,M,,,,*3E
$GPRMC,073452.000,A,4340.3938,N,00720.2241,E,1.11,146.21,280714,,*0F
$GPGGA,073502.000,4340.3931,N,00720.2234,E,1,07,1.0,5.16,M,,,,*31
$GPRMC,073502.000,A,4340.3931,N,00720.2234,E,0.14,20.93,280714,,*3C
$GPGGA,073512.000,4340.3927,N,00720.2227,E,1,07,1.0,4.39,M,,,,*39
$GPRMC,073512.000,A,4340.3927,N,00720.2227,E,0.14,275.70,280714,,*07
$GPGGA,073522.000,4340.3921,N,00720.2214,E,1,07,1.0,4.02,M,,,,*34
$GPRMC,073522.000,A,4340.3921,N,00720.2214,E,0.93,269.15,280714,,*03
$GPGGA,073532.000,4340.3916,N,00720.2203,E,1,07,1.0,6.36,M,,,,*32
$GPRMC,073532.000,A,4340.3916,N,00720.2203,E,0.33,226.78,280714,,*0A
$GPGGA,073542.000,4340.3900,N,00720.2175,E,1,07,1.0,7.20,M,,,,*36
$GPRMC,073542.000,A,4340.3900,N,00720.2175,E,1.03,221.09,280714,,*0B
$GPGGA,073552.000,4340.3904,N,00720.2169,E,1,07,1.0,8.56,M,,,,*30
$GPRMC,073552.000,A,4340.3904,N,00720.2169,E,0.17,207.01,280714,,*0B
$GPGGA,073602.000,4340.3902,N,00720.2157,E,1,07,1.0,6.68,M,,,,*3E
$GPRMC,073602.000,A,4340.3902,N,00720.2157,E,0.29,259.31,280714,,*03
$GPGGA,073612.000,4340.3899,N,00720.2160,E,1,07,1.0,5.47,M,,,,*36
$GPRMC,073612.000,A,4340.3899,N,00720.2160,E,0.80,243.86,280714,,*01
$GPGGA,073622.000,4340.3898,N,00720.2153,E,1,07,1.0,5.83,M,,,,*3C
$GPRMC,073622.000,A,4340.3898,N,00720.2153,E,0.87,275.47,280714,,*0C
$GPGGA,073632.000,4340.3888,N,00720.2135,E,1,07,1.0,5.75,M,,,,*35
$GPRMC,073632.000,A,4340.3888,N,00720.2135,E,0.49,249.79,280714,,*0C
$GPGGA,073642.000,4340.3882,N,00720.2122,E,1,07,1.0,4.95,M,,,,*31
$GPRMC,073642.000,A,4340.3882,N,00720.2122,E,0.58,288.69,280714,,*0B
$GPGGA,073652.000,4340.3881,N,00720.2109,E,1,07,1.0,5.03,M,,,,*34
$GPRMC,073652.000,A,4340.3881,N,00720.2109,E,1.03,230.30,280714,,*00
$GPGGA,073702.000,4340.3873,N,00720.2101,E,1,07,1.0,4.51,M,,,,*33
$GPRMC,073702.000,A,4340.3873,N,00720.2101,E,0.76,275.67,280714,,*01
$GPGGA,073712.000,4340.3873,N,00720.2094,E,1,07,1.0,4.64,M,,,,*39
$GPRMC,073712.000,A,4340.3873,N,00720.2094,E,0.95,29.75,280714,,*38
$GPGGA,073722.000,4340.3867,N,00720.2073,E,1,07,1.0,4.27,M,,,,*31
$GPRMC,073722.000,A,4340.3867,N,00720.2073,E,0.76,259.82,280714,,*07
$GPGGA,073732.000,4340.3857,N,00720.2066,E,1,07,1.0,4.01,M,,,,*33
$GPRMC,073732.000,A,4340.3857,N,00720.2066,E,1.73,186.07,280714,,*09
$GPGGA,073742.000,4340.3851,N,00720.2054,E,1,07,1.0,4.62,M,,,,*36
$GPRMC,073742.000,A,4340.3851,N,00720.2054,E,1.36,273.27,280714,,*03
$GPGGA,073752.000,4340.3841,N,00720.2050,E,1,07,1.0,5.02,M,,,,*35
$GPRMC,073752.000,A,4340.3841,N,00720.2050,E,0.41,153.02,280714,,*00
$GPGGA,073802.000,4340.3840,N,00720.2047,E,1,07,1.0,4.34,M,,,,*3C
$GPRMC,073802.000,A,4340.3840,N,00720.2047,E,0.25,24.90,280714,,*35
$GPGGA,073812.000,4340.3833,N,00720.2042,E,1,07,1.0,3.96,M,,,,*33
$GPRMC,073812.000,A,4340.3833,N,00720.2042,E,0.39,70.77,280714,,*30
$GPGGA,073822.000,4340.3828,N,00720.2032,E,1,08,1.0,3.57,M,,,,*3F
$GPRMC,073822.000,A,4340.3828,N,00720.2032,E,0.60,25.22,280714,,*32
$GPGGA,073832.000,4340.3828,N,00720.2020,E,1,08,1.0,3.92,M,,,,*34
$GPRMC,073832.000,A,4340.3828,N,00720.2020,E,0.87,227.21,280714,,*0A
$GPGGA,073842.000,4340.3827,N,00720.2017,E,1,08,1.0,3.81,M,,,,*3A
$GPRMC,073842.000,A,4340.3827,N,00720.2017,E,0.82,112.33,280714,,*05
$GPGGA,073852.000,4340.3826,N,00720.1998,E,1,08,1.0,3.55,M,,,,*3E
$GPRMC,073852.000,A,4340.3826,N,00720.1998,E,1.21,272.06,280714,,*03
$GPGGA,073902.000,4340.3819,N,00720.1990,E,1,08,1.0,3.57,M,,,,*3C
$GPRMC,073902.000,A,4340.3819,N,00720.1990,E,0.99,231.91,280714,,*08
$GPGGA,073912.000,4340.3809,N,00720.1981,E,1,08,1.0,4.38,M,,,,*32
$GPRMC,073912.000,A,4340.3809,N,00720.1981,E,0.19,223.51,280714,,*0F
$GPGGA,073922.000,4340.3805,N,00720.1970,E,1,08,1.0,4.62,M,,,,*3C
$GPRMC,073922.000,A,4340.3805,N,00720.1970,E,0.23,236.53,280714,,*01
$GPGGA,073932.000,4340.3800,N,00720.1963,E,1,08,1.0,5.85,M,,,,*32
$GPRMC,073932.000,A,4340.3800,N,00720.1963,E,0.17,241.72,280714,,*03
$GPGGA,073942.000,4340.3789,N,00720.1951,E,1,08,1.0,5.40,M,,,,*33
$GPRMC,073942.000,A,4340.3789,N,00720.1951,E,1.11,229.92,280714,,*0C
$GPGGA,073952.000,4340.3787,N,00720.1942,E,1,08,1.0,5.33,M,,,,*3A
$GPRMC,073952.000,A,4340.3787,N,00720.1942,E,0.21,281.77,280714,,*0A
$GPGGA,074002.000,4340.3787,N,00720.1928,E,1,08,1.0,4.20,M,,,,*3E
$GPRMC,074002.000,A,4340.3787,N,00720.1928,E,0.54,346.92,280714,,*0E
$GPGGA,074012.000,4340.3779,N,00720.1916,E,1,08,1.0,4.36,M,,,,*34
$GPRMC,074012.000,A,4340.3779,N,00720.1916,E,1.07,207.45,280714,,*0A
$GPGGA,074022.000,4340.3778,N,00720.1911,E,1,08,1.0,4.53,M,,,,*32
$GPRMC,074022.000,A,4340.3778,N,00720.1911,E,0.49,104.52,280714,,*02
$GPGGA,074032.000,4340.3770,N,00720.1902,E,1,08,1.0,4.80,M,,,,*37
$GPRMC,074032.000,A,4340.3770,N,00720.1902,E,0.27,181.64,280714,,*09
$GPGGA,074042.000,4340.3761,N,00720.1892,E,1,08,1.0,4.71,M,,,,*36
$GPRMC,074042.000,A,4340.3761,N,00720.1892,E,0.80,297.99,280714,,*0D
$GPGGA,074052.000,4340.3751,N,00720.1882,E,1,08,1.0,5.51,M,,,,*36
$GPRMC,074052.000,A,4340.3751,N,00720.1882,E,0.51,185.25,280714,,*05
$GPGGA,074102.000,4340.3747,N,00720.1875,E,1,08,1.0,5.53,M,,,,*3F
$GPRMC,074102.000,A,4340.3747,N,00720.1875,E,0.78,117.52,280714,,*0E
$GPGGA,074112.000,4340.3746,N,00720.1862,E,1,08,1.0,5.85,M,,,,*32
$GPRMC,074112.000,A,4340.3746,N,00720.1862,E,0.99,12.39,280714,,*3E
$GPGGA,074122.000,4340.3740,N,00720.1847,E,1,08,1.0,4.43,M,,,,*3B
$GPRMC,074122.000,A,4340.3740,N,00720.1847,E,0.89,233.92,280714,,*0D
$GPGGA,074132.000,4340.3733,N,00720.1837,E,1,08,1.0,4.02,M,,,,*3C
$GPRMC,074132.000,A,4340.3733,N,00720.1837,E,1.15,196.20,280714,,*0E
$GPGGA,074142.000,4340.3723,N,00720.1831,E,1,08,1.0,4.54,M,,,,*3F
$GPRMC,074142.000,A,4340.3723,N,00720.1831,E,0.51,136.72,280714,,*02
$GPGGA,074152.000,4340.3719,N,00720.1818,E,1,08,1.0,5.22,M,,,,*3C
$GPRMC,074152.000,A,4340.3719,N,00720.1818,E,0.25,83.87,280714,,*37
$GPGGA,074202.000,4340.3704,N,00720.1798,E,1,08,1.0,4.41,M,,,,*35
$GPRMC,074202.000,A,4340.3704,N,00720.1798,E,1.54,234.38,280714,,*07
$GPGGA,074212.000,4340.3705,N,00720.1793,E,1,08,1.0,3.87,M,,,,*33
$GPRMC,074212.000,A,4340.3705,N,00720.1793,E,0.12,238.19,280714,,*00
$GPGGA,074222.000,4340.3707,N,00720.1784,E,1,08,1.0,3.21,M,,,,*38
$GPRMC,074222.000,A,4340.3707,N,00720.1784,E,0.60,295.81,280714,,*04
$GPGGA,074232.000,4340.3699,N,00720.1774,E,1,08,1.0,3.45,M,,,,*32
$GPRMC,074232.000,A,4340.3699,N,00720.1774,E,0.16,62.43,280714,,*39
$GPGGA,074242.000,4340.3695,N,00720.1767,E,1,08,1.0,2.82,M,,,,*31
$GPRMC,074242.000,A,4340.3695,N,00720.1767,E,0.31,221.14,280714,,*02
$GPGGA,074252.000,4340.3692,N,00720.1763,E,1,08,1.0,3.40,M,,,,*3C
$GPRMC,074252.000,A,4340.3692,N,00720.1763,E,0.84,51.51,280714,,*3A
$GPGGA,074302.000,4340.3686,N,00720.1756,E,1,08,1.0,3.97,M,,,,*31
$GPRMC,074302.000,A,4340.3686,N,00720.1756,E,0.82,281.34,280714,,*07
$GPGGA,074312.000,4340.3680,N,00720.1736,E,1,08,1.0,4.01,M,,,,*38
$GPRMC,074312.000,A,4340.3680,N,00720.1736,E,0.19,334.97,280714,,*02
$GPGGA,074322.000,4340.3675,N,00720.1724,E,1,08,1.0,4.21,M,,,,*30
$GPRMC,074322.000,A,4340.3675,N,00720.1724,E,0.10,37.85,280714,,*32
$GPGGA,074332.000,4340.3670,N,00720.1714,E,1,08,1.0,4.07,M,,,,*33
$GPRMC,074332.000,A,4340.3670,N,00720.1714,E,0.93,239.19,280714,,*07
$GPGGA,074342.000,4340.3669,N,00720.1703,E,1,08,1.0,4.23,M,,,,*3C
$GPRMC,074342.000,A,4340.3669,N,00720.1703,E,0.58,328.17,280714,,*06
$GPGGA,074352.000,4340.3649,N,00720.1687,E,1,08,1.0,5.34,M,,,,*35
$GPRMC,074352.000,A,4340.3649,N,00720.1687,E,0.37,160.62,280714,,*0D
$GPGGA,074402.000,4340.3637,N,00720.1671,E,1,08,1.0,6.62,M,,,,*37
$GPRMC,074402.000,A,4340.3637,N,00720.1671,E,1.32,245.50,280714,,*0E
$GPGGA,074412.000,4340.3628,N,00720.1665,E,1,08,0.8,6.30,M,,,,*33
$GPRMC,074412.000,A,4340.3628,N,00720.1665,E,1.05,240.16,280714,,*07
$GPGGA,074422.000,4340.3626,N,00720.1664,E,1,08,0.8,5.52,M,,,,*38
$GPRMC,074422.000,A,4340.3626,N,00720.1664,E,1.21,295.46,280714,,*00
$GPGGA,074432.000,4340.3622,N,00720.1657,E,1,08,0.8,5.25,M,,,,*3D
$GPRMC,074432.000,A,4340.3622,N,00720.1657,E,0.60,184.93,280714,,*0A
$GPGGA,074442.000,4340.3621,N,00720.1643,E,1,08,0.8,4.81,M,,,,*33
$GPRMC,074442.000,A,4340.3621,N,00720.1643,E,0.68,260.00,280714,,*00
$GPGGA,074452.000,4340.3617,N,00720.1631,E,1,08,0.8,3.43,M,,,,*3B
$GPRMC,074452.000,A,4340.3617,N,00720.1631,E,1.05,251.90,280714,,*00
$GPGGA,074502.000,4340.3619,N,00720.1628,E,1,08,0.8,4.08,M,,,,*31
$GPRMC,074502.000,A,4340.3619,N,00720.1628,E,0.58,329.93,280714,,*06
$GPGGA,074512.000,4340.3615,N,00720.1615,E,1,08,0.8,5.86,M,,,,*35
$GPRMC,074512.000,A,4340.3615,N,00720.1615,E,0.17,344.27,280714,,*0A
$GPGGA,074522.000,4340.3607,N,00720.1600,E,1,08,0.8,5.02,M,,,,*3D
$GPRMC,074522.000,A,4340.3607,N,00720.1600,E,0.41,177.07,280714,,*0D
$GPGGA,074532.000,4340.3598,N,00720.1589,E,1,08,0.8,4.88,M,,,,*38
$GPRMC,074532.000,A,4340.3598,N,00720.1589,E,0.87,225.10,280714,,*03
$GPGGA,074542.000,4340.3590,N,00720.1585,E,1,08,0.8,4.01,M,,,,*3A
$GPRMC,074542.000,A,4340.3590,N,00720.1585,E,0.62,265.75,280714,,*0C
$GPGGA,074552.000,4340.3583,N,00720.1576,E,1,08,0.8,3.93,M,,,,*39
$GPRMC,074552.000,A,4340.3583,N,00720.1576,E,0.52,107.82,280714,,*0F
$GPGGA,074602.000,4340.3578,N,00720.1563,E,1,08,0.8,3.42,M,,,,*33
$GPRMC,074602.000,A,4340.3578,N,00720.1563,E,0.87,236.19,280714,,*02
$GPGGA,074612.000,4340.3571,N,00720.1552,E,1,08,0.8,4.39,M,,,,*32
$GPRMC,074612.000,A,4340.3571,N,00720.1552,E,0.39,228.80,280714,,*02
$GPGGA,074622.000,4340.3572,N,00720.1539,E,1,08,0.8,4.45,M,,,,*34
$GPRMC,074622.000,A,4340.3572,N,00720.1539,E,0.23,189.98,280714,,*05
$GPGGA,074632.000,4340.3552,N,00720.1517,E,1,08,0.8,6.34,M,,,,*3F
$GPRMC,074632.000,A,4340.3552,N,00720.1517,E,0.84,277.84,280714,,*08
$GPGGA,074642.000,4340.3553,N,00720.1505,E,1,08,0.8,7.23,M,,,,*3D
$GPRMC,074642.000,A,4340.3553,N,00720.1505,E,0.33,123.08,280714,,*07
$GPGGA,074652.000,4340.3544,N,00720.1491,E,1,08,0.8,7.47,M,,,,*34
$GPRMC,074652.000,A,4340.3544,N,00720.1491,E,0.58,271.00,280714,,*0D
$GPGGA,074702.000,4340.3544,N,00720.1467,E,1,08,0.8,6.89,M,,,,*3A
$GPRMC,074702.000,A,4340.3544,N,00720.1467,E,0.76,226.66,280714,,*0E
$GPGGA,074712.000,4340.3546,N,00720.1472,E,1,08,0.8,5.99,M,,,,*3F
$GPRMC,074712.000,A,4340.3546,N,00720.1472,E,1.28,43.48,280714,,*3E
$GPGGA,074722.000,4340.3538,N,00720.1459,E,1,08,0.8,4.32,M,,,,*3C
$GPRMC,074722.000,A,4340.3538,N,00720.1459,E,0.58,239.70,280714,,*0F
$GPGGA,074732.000,4340.3537,N,00720.1453,E,1,08,0.8,2.16,M,,,,*38
$GPRMC,074732.000,A,4340.3537,N,00720.1453,E,0.27,157.03,280714,,*0C
$GPGGA,074742.000,4340.3529,N,00720.1445,E,1,08,0.8,2.99,M,,,,*30
$GPRMC,074742.000,A,4340.3529,N,00720.1445,E,0.64,235.91,280714,,*08
$GPGGA,074752.000,4340.3524,N,00720.1433,E,1,08,0.8,3.49,M,,,,*31
$GPRMC,074752.000,A,4340.3524,N,00720.1433,E,0.49,193.78,280714,,*02
$GPGGA,074802.000,4340.3512,N,00720.1410,E,1,08,0.8,3.91,M,,,,*3A
$GPRMC,074802.000,A,4340.3512,N,00720.1410,E,0.72,208.53,280714,,*0C
$GPGGA,074812.000,4340.3511,N,00720.1404,E,1,08,0.8,4.53,M,,,,*34
$GPRMC,074812.000,A,4340.3511,N,00720.1404,E,0.76,119.82,280714,,*00
$GPGGA,074822.000,4340.3506,N,00720.1389,E,1,08,0.8,4.96,M,,,,*3A
$GPRMC,074822.000,A,4340.3506,N,00720.1389,E,0.91,227.76,280714,,*0B
$GPGGA,074832.000,4340.3499,N,00720.1387,E,1,08,0.8,4.55,M,,,,*3D
$GPRMC,074832.000,A,4340.3499,N,00720.1387,E,1.15,271.55,280714,,*0C
$GPGGA,074842.000,4340.3495,N,00720.1378,E,1,08,0.8,4.39,M,,,,*3C
$GPRMC,074842.000,A,4340.3495,N,00720.1378,E,0.39,54.06,280714,,*3B
$GPGGA,074852.000,4340.3486,N,00720.1365,E,1,08,0.8,3.66,M,,,,*3E
$GPRMC,074852.000,A,4340.3486,N,00720.1365,E,0.60,161.87,280714,,*06
$GPGGA,074902.000,4340.3477,N,00720.1351,E,1,08,0.8,4.39,M,,,,*3E
$GPRMC,074902.000,A,4340.3477,N,00720.1351,E,0.60,271.48,280714,,*0A
$GPGGA,074912.000,4340.3472,N,00720.1331,E,1,08,0.8,5.92,M,,,,*3C
$GPRMC,074912.000,A,4340.3472,N,00720.1331,E,0.66,198.06,280714,,*00
$GPGGA,074922.000,4340.3463,N,00720.1319,E,1,08,0.8,5.88,M,,,,*3E
$GPRMC,074922.000,A,4340.3463,N,00720.1319,E,1.19,204.01,280714,,*01
$GPGGA,074932.000,4340.3452,N,00720.1305,E,1,08,0.8,5.48,M,,,,*3C
$GPRMC,074932.000,A,4340.3452,N,00720.1305,E,0.72,216.71,280714,,*07
$GPGGA,074942.000,4340.3443,N,00720.1288,E,1,08,0.8,5.30,M,,,,*30
$GPRMC,074942.000,A,4340.3443,N,00720.1288,E,0.84,233.66,280714,,*0C
$GPGGA,074952.000,4340.3439,N,00720.1280,E,1,08,0.8,4.99,M,,,,*36
$GPRMC,074952.000,A,4340.3439,N,00720.1280,E,1.22,192.13,280714,,*0F
$GPGGA,075002.000,4340.3439,N,00720.1276,E,1,08,0.8,5.09,M,,,,*3A
$GPRMC,075002.000,A,4340.3439,N,00720.1276,E,0.37,35.60,280714,,*36
$GPGGA,075012.000,4340.3434,N,00720.1266,E,1,08,0.8,4.10,M,,,,*3E
$GPRMC,075012.000,A,4340.3434,N,00720.1266,E,0.80,202.46,280714,,*05
$GPGGA,075022.000,4340.3429,N,00720.1251,E,1,08,0.8,4.23,M,,,,*35
$GPRMC,075022.000,A,4340.3429,N,00720.1251,E,0.16,88.24,280714,,*35
$GPGGA,075032.000,4340.3426,N,00720.1240,E,1,08,0.8,3.86,M,,,,*33
$GPRMC,075032.000,A,4340.3426,N,00720.1240,E,0.27,255.73,280714,,*09
$GPGGA,075042.000,4340.3418,N,00720.1232,E,1,08,0.8,3.51,M,,,,*36
$GPRMC,075042.000,A,4340.3418,N,00720.1232,E,0.78,90.70,280714,,*34
$GPGGA,075052.000,4340.3407,N,00720.1213,E,1,08,0.8,5.47,M,,,,*3B
$GPRMC,075052.000,A,4340.3407,N,00720.1213,E,1.09,279.00,280714,,*0D
$GPGGA,075102.000,4340.3397,N,00720.1207,E,1,08,0.8,5.52,M,,,,*30
$GPRMC,075102.000,A,4340.3397,N,00720.1207,E,0.62,219.88,280714,,*08
$GPGGA,075112.000,4340.3387,N,00720.1204,E,1,08,0.8,5.38,M,,,,*3F
$GPRMC,075112.000,A,4340.3387,N,00720.1204,E,0.66,257.87,280714,,*0A
$GPGGA,075122.000,4340.3350,N,00720.1205,E,1,08,0.8,6.05,M,,,,*3A
$GPRMC,075122.000,A,4340.3350,N,00720.1205,E,0.62,286.37,280714,,*01
$GPGGA,075132.000,4340.3362,N,00720.1202,E,1,08,0.8,2.27,M,,,,*39
$GPRMC,075132.000,A,4340.3362,N,00720.1202,E,0.72,270.43,280714,,*0D
$GPGGA,075142.000,4340.3365,N,00720.1187,E,1,08,0.8,1.32,M,,,,*30
$GPRMC,075142.000,A,4340.3365,N,00720.1187,E,0.70,235.82,280714,,*0D
$GPGGA,075152.000,4340.3376,N,00720.1185,E,1,07,1.0,1.70,M,,,,*31
$GPRMC,075152.000,A,4340.3376,N,00720.1185,E,0.70,273.05,280714,,*01
$GPGGA,075202.000,4340.3371,N,00720.1163,E,1,08,0.8,2.42,M,,,,*3C
$GPRMC,075202.000,A,4340.3371,N,00720.1163,E,0.74,197.71,280714,,*06
$GPGGA,075212.000,4340.3359,N,00720.1138,E,1,08,0.8,2.69,M,,,,*30
$GPRMC,075212.000,A,4340.3359,N,00720.1138,E,0.47,253.70,280714,,*09
$GPGGA,075222.000,4340.3353,N,00720.1124,E,1,08,0.8,2.99,M,,,,*3B
$GPRMC,075222.000,A,4340.3353,N,00720.1124,E,0.76,188.13,280714,,*0F
$GPGGA,075232.000,4340.3348,N,00720.1110,E,1,08,0.8,4.17,M,,,,*37
$GPRMC,075232.000,A,4340.3348,N,00720.1110,E,0.80,269.34,280714,,*03
$GPGGA,075242.000,4340.3342,N,00720.1106,E,1,08,0.8,5.17,M,,,,*3C
$GPRMC,075242.000,A,4340.3342,N,00720.1106,E,0.80,308.85,280714,,*05
$GPGGA,075252.000,4340.3335,N,00720.1095,E,1,08,0.8,5.75,M,,,,*32
$GPRMC,075252.000,A,4340.3335,N,00720.1095,E,0.58,183.84,280714,,*0A
$GPGGA,075302.000,4340.3327,N,00720.1081,E,1,08,0.8,5.51,M,,,,*36
$GPRMC,075302.000,A,4340.3327,N,00720.1081,E,0.68,286.43,280714,,*06
$GPGGA,075312.000,4340.3325,N,00720.1076,E,1,08,0.8,6.14,M,,,,*3F
$GPRMC,075312.000,A,4340.3325,N,00720.1076,E,0.87,242.39,280714,,*09
$GPGGA,075322.000,4340.3322,N,00720.1065,E,1,08,0.8,7.15,M,,,,*39
$GPRMC,075322.000,A,4340.3322,N,00720.1065,E,0.04,72.09,280714,,*36
$GPGGA,075332.000,4340.3313,N,00720.1052,E,1,08,0.8,7.40,M,,,,*3E
$GPRMC,075332.000,A,4340.3313,N,00720.1052,E,0.56,156.95,280714,,*04
$GPGGA,075342.000,4340.3302,N,00720.1038,E,1,08,0.8,7.36,M,,,,*34
$GPRMC,075342.000,A,4340.3302,N,00720.1038,E,1.98,184.88,280714,,*0F
$GPGGA,075352.000,4340.3284,N,00720.1007,E,1,08,0.8,6.51,M,,,,*36
$GPRMC,075352.000,A,4340.3284,N,00720.1007,E,1.13,234.03,280714,,*05
$GPGGA,075402.000,4340.3278,N,00720.0986,E,1,08,0.8,5.47,M,,,,*32
$GPRMC,075402.000,A,4340.3278,N,00720.0986,E,1.15,282.18,280714,,*04
$GPGGA,075412.000,4340.3275,N,00720.0962,E,1,08,0.8,5.15,M,,,,*33
$GPRMC,075412.000,A,4340.3275,N,00720.0962,E,0.60,256.33,280714,,*01
$GPGGA,075422.000,4340.3265,N,00720.0933,E,1,08,0.8,4.94,M,,,,*3D
$GPRMC,075422.000,A,4340.3265,N,00720.0933,E,0.86,247.84,280714,,*03
$GPGGA,075432.000,4340.3257,N,00720.0908,E,1,08,0.8,4.63,M,,,,*3D
$GPRMC,075432.000,A,4340.3257,N,00720.0908,E,0.74,235.01,280714,,*0E
$GPGGA,075442.000,4340.3248,N,00720.0880,E,1,08,0.8,4.36,M,,,,*35
$GPRMC,075442.000,A,4340.3248,N,00720.0880,E,0.95,223.79,280714,,*01
$GPGGA,075452.000,4340.3237,N,00720.0855,E,1,08,0.8,4.24,M,,,,*37
$GPRMC,075452.000,A,4340.3237,N,00720.0855,E,1.30,228.88,280714,,*0B
$GPGGA,075502.000,4340.3228,N,00720.0822,E,1,08,0.8,4.28,M,,,,*31
$GPRMC,075502.000,A,4340.3228,N,00720.0822,E,1.11,238.94,280714,,*0E
$GPGGA,075512.000,4340.3224,N,00720.0792,E,1,08,0.8,4.42,M,,,,*34
$GPRMC,075512.000,A,4340.3224,N,00720.0792,E,0.45,294.40,280714,,*08
$GPGGA,075522.000,4340.3220,N,00720.0763,E,1,08,0.8,4.47,M,,,,*38
$GPRMC,075522.000,A,4340.3220,N,00720.0763,E,0.70,213.72,280714,,*09
$GPGGA,075532.000,4340.3212,N,00720.0734,E,1,07,1.0,4.19,M,,,,*37
$GPRMC,075532.000,A,4340.3212,N,00720.0734,E,0.93,256.50,280714,,*07
$GPGGA,075542.000,4340.3202,N,00720.0706,E,1,08,0.8,3.64,M,,,,*3B
$GPRMC,075542.000,A,4340.3202,N,00720.0706,E,0.95,236.79,280714,,*0B
$GPGGA,075552.000,4340.3196,N,00720.0674,E,1,08,0.8,3.22,M,,,,*32
$GPRMC,075552.000,A,4340.3196,N,00720.0674,E,0.93,246.05,280714,,*0A
$GPGGA,075602.000,4340.3188,N,00720.0641,E,1,08,0.8,3.24,M,,,,*3B
$GPRMC,075602.000,A,4340.3188,N,00720.0641,E,0.93,257.90,280714,,*09
$GPGGA,075612.000,4340.3181,N,00720.0609,E,1,08,0.8,3.41,M,,,,*3C
$GPRMC,075612.000,A,4340.3181,N,00720.0609,E,0.70,256.12,280714,,*0B
$GPGGA,075622.000,4340.3173,N,00720.0578,E,1,07,1.0,3.68,M,,,,*3A
$GPRMC,075622.000,A,4340.3173,N,00720.0578,E,0.68,211.36,280714,,*0C
$GPGGA,075632.000,4340.3164,N,00720.0547,E,1,08,0.8,3.89,M,,,,*38
$GPRMC,075632.000,A,4340.3164,N,00720.0547,E,1.09,239.47,280714,,*0D
$GPGGA,075642.000,4340.3159,N,00720.0513,E,1,08,0.8,3.74,M,,,,*32
$GPRMC,075642.000,A,4340.3159,N,00720.0513,E,0.66,260.84,280714,,*0E
$GPGGA,075652.000,4340.3151,N,00720.0471,E,1,08,0.8,3.44,M,,,,*3D
$GPRMC,075652.000,A,4340.3151,N,00720.0471,E,1.05,267.35,280714,,*0B
$GPGGA,075702.000,4340.3142,N,00720.0434,E,1,08,0.8,3.05,M,,,,*3F
$GPRMC,075702.000,A,4340.3142,N,00720.0434,E,0.89,254.68,280714,,*01
$GPGGA,075712.000,4340.3130,N,00720.0414,E,1,08,0.8,3.38,M,,,,*37
$GPRMC,075712.000,A,4340.3130,N,00720.0414,E,0.86,124.44,280714,,*02
$GPGGA,075722.000,4340.3125,N,00720.0395,E,1,08,0.8,3.40,M,,,,*31
$GPRMC,075722.000,A,4340.3125,N,00720.0395,E,0.52,69.52,280714,,*3D
$GPGGA,075732.000,4340.3121,N,00720.0400,E,1,09,0.8,4.65,M,,,,*3E
$GPRMC,075732.000,A,4340.3121,N,00720.0400,E,0.72,270.76,280714,,*0D
$GPGGA,075742.000,4340.3117,N,00720.0386,E,1,09,0.8,6.77,M,,,,*34
$GPRMC,075742.000,A,4340.3117,N,00720.0386,E,0.66,166.68,280714,,*08
$GPGGA,075752.000,4340.3113,N,00720.0372,E,1,09,0.8,6.29,M,,,,*31
$GPRMC,075752.000,A,4340.3113,N,00720.0372,E,0.82,235.47,280714,,*04
$GPGGA,075802.000,4340.3104,N,00720.0347,E,1,09,0.8,5.74,M,,,,*30
$GPRMC,075802.000,A,4340.3104,N,00720.0347,E,1.89,252.75,280714,,*04
$GPGGA,075812.000,4340.3098,N,00720.0338,E,1,09,0.8,4.84,M,,,,*33
$GPRMC,075812.000,A,4340.3098,N,00720.0338,E,0.45,249.96,280714,,*0F
$GPGGA,075822.000,4340.3090,N,00720.0328,E,1,09,0.8,4.55,M,,,,*35
$GPRMC,075822.000,A,4340.3090,N,00720.0328,E,0.31,246.24,280714,,*00
$GPGGA,075832.000,4340.3084,N,00720.0311,E,1,09,0.8,5.97,M,,,,*34
$GPRMC,075832.000,A,4340.3084,N,00720.0311,E,1.81,252.70,280714,,*00
$GPGGA,075842.000,4340.3079,N,00720.0295,E,1,09,0.8,5.18,M,,,,*3B
$GPRMC,075842.000,A,4340.3079,N,00720.0295,E,0.72,209.82,280714,,*06
$GPGGA,075852.000,4340.3073,N,00720.0280,E,1,09,0.8,5.72,M,,,,*38
$GPRMC,075852.000,A,4340.3073,N,00720.0280,E,0.60,232.95,280714,,*04
$GPGGA,075902.000,4340.3067,N,00720.0269,E,1,09,0.8,5.97,M,,,,*35
$GPRMC,075902.000,A,4340.3067,N,00720.0269,E,0.19,330.28,280714,,*09
$GPGGA,075912.000,4340.3055,N,00720.0257,E,1,09,0.8,5.53,M,,,,*30
$GPRMC,075912.000,A,4340.3055,N,00720.0257,E,0.17,259.89,280714,,*0F
$GPGGA,075922.000,4340.3047,N,00720.0238,E,1,09,0.8,5.78,M,,,,*30
$GPRMC,075922.000,A,4340.3047,N,00720.0238,E,0.52,218.92,280714,,*08
$GPGGA,075932.000,4340.3040,N,00720.0227,E,1,09,0.8,5.42,M,,,,*31
$GPRMC,075932.000,A,4340.3040,N,00720.0227,E,0.66,271.77,280714,,*03
$GPGGA,075942.000,4340.3031,N,00720.0205,E,1,09,0.8,4.22,M,,,,*37
$GPRMC,075942.000,A,4340.3031,N,00720.0205,E,0.74,171.59,280714,,*0E
$GPGGA,075952.000,4340.3016,N,00720.0188,E,1,09,0.8,4.93,M,,,,*3F
$GPRMC,075952.000,A,4340.3016,N,00720.0188,E,1.03,207.26,280714,,*07
$GPGGA,080002.000,4340.3013,N,00720.0174,E,1,09,0.8,5.16,M,,,,*33
$GPRMC,080002.000,A,4340.3013,N,00720.0174,E,1.13,251.67,280714,,*00
$GPGGA,080012.000,4340.3005,N,00720.0170,E,1,09,0.8,5.24,M,,,,*30
$GPRMC,080012.000,A,4340.3005,N,00720.0170,E,0.12,293.88,280714,,*0D
$GPGGA,080022.000,4340.3001,N,00720.0145,E,1,09,0.8,4.48,M,,,,*3A
$GPRMC,080022.000,A,4340.3001,N,00720.0145,E,0.23,6.35,280714,,*06
$GPGGA,080032.000,4340.2992,N,00720.0136,E,1,09,0.8,4.51,M,,,,*35
$GPRMC,080032.000,A,4340.2992,N,00720.0136,E,0.08,177.66,280714,,*09
$GPGGA,080042.000,4340.2983,N,00720.0111,E,1,09,0.8,5.07,M,,,,*35
$GPRMC,080042.000,A,4340.2983,N,00720.0111,E,0.56,309.57,280714,,*09
$GPGGA,080052.000,4340.2983,N,00720.0094,E,1,09,0.8,6.33,M,,,,*3C
$GPRMC,080052.000,A,4340.2983,N,00720.0094,E,0.17,112.99,280714,,*0B
$GPGGA,080102.000,4340.2966,N,00720.0086,E,1,09,0.8,6.67,M,,,,*31
$GPRMC,080102.000,A,4340.2966,N,00720.0086,E,0.80,242.21,280714,,*0C
$GPGGA,080112.000,4340.2960,N,00720.0061,E,1,09,0.8,4.86,M,,,,*32
$GPRMC,080112.000,A,4340.2960,N,00720.0061,E,0.72,225.26,280714,,*09
$GPGGA,080122.000,4340.2962,N,00720.0044,E,1,09,0.8,4.40,M,,,,*3E
$GPRMC,080122.000,A,4340.2962,N,00720.0044,E,0.82,359.86,280714,,*00
$GPGGA,080132.000,4340.2952,N,00720.0024,E,1,09,0.8,5.59,M,,,,*33
$GPRMC,080132.000,A,4340.2952,N,00720.0024,E,1.24,256.05,280714,,*0C
$GPGGA,080142.000,4340.2945,N,00720.0017,E,1,09,0.8,5.85,M,,,,*33
$GPRMC,080142.000,A,4340.2945,N,00720.0017,E,0.54,250.25,280714,,*0F
$GPGGA,080152.000,4340.2934,N,00719.9992,E,1,09,0.8,5.57,M,,,,*3C
$GPRMC,080152.000,A,4340.2934,N,00719.9992,E,0.84,237.31,280714,,*06
$GPGGA,080202.000,4340.2934,N,00719.9985,E,1,09,0.8,4.76,M,,,,*3E
$GPRMC,080202.000,A,4340.2934,N,00719.9985,E,0.29,278.07,280714,,*0F
$GPGGA,080212.000,4340.2932,N,00719.9976,E,1,09,0.8,4.88,M,,,,*34
$GPRMC,080212.000,A,4340.2932,N,00719.9976,E,0.49,234.60,280714,,*0B
$GPGGA,080222.000,4340.2927,N,00719.9967,E,1,09,0.8,4.68,M,,,,*3D
$GPRMC,080222.000,A,4340.2927,N,00719.9967,E,0.52,257.02,280714,,*07
$GPGGA,080232.000,4340.2916,N,00719.9951,E,1,09,0.8,4.73,M,,,,*31
$GPRMC,080232.000,A,4340.2916,N,00719.9951,E,0.43,170.48,280714,,*09
$GPGGA,080242.000,4340.2917,N,00719.9930,E,1,07,0.8,2.79,M,,,,*32
$GPRMC,080242.000,A,4340.2917,N,00719.9930,E,1.36,295.99,280714,,*0F
$GPGGA,080252.000,4340.2909,N,00719.9919,E,1,09,0.8,2.78,M,,,,*38
$GPRMC,080252.000,A,4340.2909,N,00719.9919,E,0.33,111.85,280714,,*0C
$GPGGA,080302.000,4340.2905,N,00719.9896,E,1,09,0.8,3.24,M,,,,*3E
$GPRMC,080302.000,A,4340.2905,N,00719.9896,E,0.54,173.23,280714,,*0B
$GPGGA,080312.000,4340.2892,N,00719.9877,E,1,09,0.8,3.96,M,,,,*36
$GPRMC,080312.000,A,4340.2892,N,00719.9877,E,1.01,263.09,280714,,*01
$GPGGA,080322.000,4340.2886,N,00719.9873,E,1,09,0.8,3.65,M,,,,*38
$GPRMC,080322.000,A,4340.2886,N,00719.9873,E,0.76,7.72,280714,,*0E
$GPGGA,080332.000,4340.2883,N,00719.9853,E,1,09,0.8,3.53,M,,,,*3B
$GPRMC,080332.000,A,4340.2883,N,00719.9853,E,0.74,290.05,280714,,*06
$GPGGA,080342.000,4340.2878,N,00719.9827,E,1,09,0.8,4.36,M,,,,*3F
$GPRMC,080342.000,A,4340.2878,N,00719.9827,E,0.60,96.26,280714,,*36
$GPGGA,080352.000,4340.2877,N,00719.9804,E,1,09,0.8,7.17,M,,,,*30
$GPRMC,080352.000,A,4340.2877,N,00719.9804,E,0.86,187.18,280714,,*0D
$GPGGA,080402.000,4340.2874,N,00719.9810,E,1,09,0.8,6.53,M,,,,*35
$GPRMC,080402.000,A,4340.2874,N,00719.9810,E,0.93,67.46,280714,,*39
$GPGGA,080412.000,4340.2855,N,00719.9785,E,1,09,0.8,6.17,M,,,,*34
$GPRMC,080412.000,A,4340.2855,N,00719.9785,E,3.64,235.48,280714,,*08
$GPGGA,080422.000,4340.2850,N,00719.9759,E,1,09,0.8,6.59,M,,,,*39
$GPRMC,080422.000,A,4340.2850,N,00719.9759,E,1.24,243.58,280714,,*09
$GPGGA,080432.000,4340.2857,N,00719.9750,E,1,09,0.8,6.03,M,,,,*39
$GPRMC,080432.000,A,4340.2857,N,00719.9750,E,1.32,0.39,280714,,*03
$GPGGA,080442.000,4340.2858,N,00719.9735,E,1,09,0.8,4.44,M,,,,*33
$GPRMC,080442.000,A,4340.2858,N,00719.9735,E,0.62,252.07,280714,,*04
$GPGGA,080452.000,4340.2852,N,00719.9717,E,1,09,0.8,4.02,M,,,,*3A
$GPRMC,080452.000,A,4340.2852,N,00719.9717,E,0.49,70.60,280714,,*35
$GPGGA,080502.000,4340.2844,N,00719.9702,E,1,09,0.8,3.89,M,,,,*39
$GPRMC,080502.000,A,4340.2844,N,00719.9702,E,1.05,191.74,280714,,*00
$GPGGA,080512.000,4340.2841,N,00719.9684,E,1,09,0.8,4.96,M,,,,*3B
$GPRMC,080512.000,A,4340.2841,N,00719.9684,E,1.15,259.46,280714,,*0C
$GPGGA,080522.000,4340.2835,N,00719.9661,E,1,09,0.8,5.46,M,,,,*3C
$GPRMC,080522.000,A,4340.2835,N,00719.9661,E,0.82,328.38,280714,,*06
$GPGGA,080532.000,4340.2831,N,00719.9645,E,1,09,0.8,5.52,M,,,,*3A
$GPRMC,080532.000,A,4340.2831,N,00719.9645,E,1.36,246.86,280714,,*07
$GPGGA,080542.000,4340.2815,N,00719.9612,E,1,09,0.8,5.55,M,,,,*3E
$GPRMC,080542.000,A,4340.2815,N,00719.9612,E,4.76,235.06,280714,,*09
$GPGGA,080552.000,4340.2799,N,00719.9577,E,1,09,0.8,7.23,M,,,,*37
$GPRMC,080552.000,A,4340.2799,N,00719.9577,E,1.42,246.86,280714,,*0D
$GPGGA,080602.000,4340.2794,N,00719.9569,E,1,09,0.8,7.07,M,,,,*35
$GPRMC,080602.000,A,4340.2794,N,00719.9569,E,0.27,315.62,280714,,*06
$GPGGA,080612.000,4340.2788,N,00719.9561,E,1,09,0.8,5.91,M,,,,*3C
$GPRMC,080612.000,A,4340.2788,N,00719.9561,E,0.29,266.36,280714,,*08
$GPGGA,080622.000,4340.2781,N,00719.9552,E,1,09,0.8,4.77,M,,,,*3F
$GPRMC,080622.000,A,4340.2781,N,00719.9552,E,0.89,215.92,280714,,*02
$GPGGA,080632.000,4340.2770,N,00719.9533,E,1,09,0.8,4.18,M,,,,*3E
$GPRMC,080632.000,A,4340.2770,N,00719.9533,E,1.13,289.67,280714,,*07
$GPGGA,080642.000,4340.2768,N,00719.9519,E,1,09,0.8,3.94,M,,,,*3B
$GPRMC,080642.000,A,4340.2768,N,00719.9519,E,1.03,250.29,280714,,*0E
$GPGGA,080652.000,4340.2756,N,00719.9499,E,1,09,0.8,4.82,M,,,,*3E
$GPRMC,080652.000,A,4340.2756,N,00719.9499,E,0.68,251.57,280714,,*0F
$GPGGA,080702.000,4340.2759,N,00719.9491,E,1,09,0.8,5.51,M,,,,*32
$GPRMC,080702.000,A,4340.2759,N,00719.9491,E,0.47,315.49,280714,,*0F
$GPGGA,080712.000,4340.2747,N,00719.9476,E,1,09,0.8,6.24,M,,,,*34
$GPRMC,080712.000,A,4340.2747,N,00719.9476,E,0.31,245.66,280714,,*00
$GPGGA,080722.000,4340.2739,N,00719.9459,E,1,09,0.8,6.12,M,,,,*36
$GPRMC,080722.000,A,4340.2739,N,00719.9459,E,0.80,246.42,280714,,*08
$GPGGA,080732.000,4340.2735,N,00719.9437,E,1,09,0.8,5.45,M,,,,*32
$GPRMC,080732.000,A,4340.2735,N,00719.9437,E,1.22,253.41,280714,,*03
$GPGGA,080742.000,4340.2731,N,00719.9421,E,1,09,0.8,6.84,M,,,,*38
$GPRMC,080742.000,A,4340.2731,N,00719.9421,E,0.91,259.10,280714,,*00
$GPGGA,080752.000,4340.2732,N,00719.9406,E,1,09,0.8,7.29,M,,,,*39
$GPRMC,080752.000,A,4340.2732,N,00719.9406,E,0.17,147.22,280714,,*04
$GPGGA,080802.000,4340.2727,N,00719.9388,E,1,09,0.8,6.70,M,,,,*3B
$GPRMC,080802.000,A,4340.2727,N,00719.9388,E,0.10,62.56,280714,,*39
$GPGGA,080812.000,4340.2722,N,00719.9368,E,1,09,0.8,5.35,M,,,,*33
$GPRMC,080812.000,A,4340.2722,N,00719.9368,E,1.34,245.57,280714,,*02
$GPGGA,080822.000,4340.2714,N,00719.9358,E,1,09,0.8,5.03,M,,,,*33
$GPRMC,080822.000,A,4340.2714,N,00719.9358,E,1.05,218.70,280714,,*08
$GPGGA,080832.000,4340.2710,N,00719.9340,E,1,09,0.8,4.33,M,,,,*3D
$GPRMC,080832.000,A,4340.2710,N,00719.9340,E,0.97,210.50,280714,,*04
$GPGGA,080842.000,4340.2709,N,00719.9324,E,1,09,0.8,4.83,M,,,,*3B
$GPRMC,080842.000,A,4340.2709,N,00719.9324,E,0.86,137.86,280714,,*04
$GPGGA,080852.000,4340.2699,N,00719.9304,E,1,09,0.8,4.19,M,,,,*33
$GPRMC,080852.000,A,4340.2699,N,00719.9304,E,0.49,186.72,280714,,*0D
$GPGGA,080902.000,4340.2697,N,00719.9294,E,1,09,0.8,4.40,M,,,,*3D
$GPRMC,080902.000,A,4340.2697,N,00719.9294,E,0.37,153.43,280714,,*0C
$GPGGA,080912.000,4340.2688,N,00719.9275,E,1,09,0.8,5.69,M,,,,*37
$GPRMC,080912.000,A,4340.2688,N,00719.9275,E,0.47,214.44,280714,,*0C
$GPGGA,080922.000,4340.2685,N,00719.9261,E,1,09,0.8,6.62,M,,,,*34
$GPRMC,080922.000,A,4340.2685,N,00719.9261,E,1.26,238.71,280714,,*09
$GPGGA,080932.000,4340.2681,N,00719.9247,E,1,09,0.8,4.60,M,,,,*35
$GPRMC,080932.000,A,4340.2681,N,00719.9247,E,0.49,232.80,280714,,*04
$GPGGA,080942.000,4340.2678,N,00719.9218,E,1,09,0.8,4.19,M,,,,*30
$GPRMC,080942.000,A,4340.2678,N,00719.9218,E,0.68,248.86,280714,,*07
$GPGGA,080952.000,4340.2674,N,00719.9201,E,1,09,0.8,4.11,M,,,,*3D
$GPRMC,080952.000,A,4340.2674,N,00719.9201,E,0.47,24.79,280714,,*37
$GPGGA,081002.000,4340.2668,N,00719.9181,E,1,09,0.8,4.43,M,,,,*31
$GPRMC,081002.000,A,4340.2668,N,00719.9181,E,0.47,217.99,280714,,*00
$GPGGA,081012.000,4340.2663,N,00719.9170,E,1,09,0.8,4.96,M,,,,*3D
$GPRMC,081012.000,A,4340.2663,N,00719.9170,E,0.62,164.51,280714,,*00
$GPGGA,081022.000,4340.2666,N,00719.9147,E,1,09,0.8,5.74,M,,,,*32
$GPRMC,081022.000,A,4340.2666,N,00719.9147,E,1.03,241.85,280714,,*09
$GPGGA,081032.000,4340.2658,N,00719.9125,E,1,09,0.8,5.95,M,,,,*35
$GPRMC,081032.000,A,4340.2658,N,00719.9125,E,1.28,250.42,280714,,*03
$GPGGA,081042.000,4340.2651,N,00719.9111,E,1,09,0.8,6.48,M,,,,*3F
$GPRMC,081042.000,A,4340.2651,N,00719.9111,E,0.60,273.82,280714,,*0A
$GPGGA,081052.000,4340.2646,N,00719.9089,E,1,09,0.8,6.83,M,,,,*3F
$GPRMC,081052.000,A,4340.2646,N,00719.9089,E,1.34,306.42,280714,,*02
$GPGGA,081102.000,4340.2645,N,00719.9070,E,1,09,0.8,6.94,M,,,,*38
$GPRMC,081102.000,A,4340.2645,N,00719.9070,E,1.24,304.34,280714,,*01
$GPGGA,081112.000,4340.2640,N,00719.9046,E,1,09,0.8,5.99,M,,,,*37
$GPRMC,081112.000,A,4340.2640,N,00719.9046,E,0.91,296.02,280714,,*00
$GPGGA,081122.000,4340.2632,N,00719.9033,E,1,09,0.8,4.89,M,,,,*33
$GPRMC,081122.000,A,4340.2632,N,00719.9033,E,0.62,288.05,280714,,*00
$GPGGA,081132.000,4340.2624,N,00719.9025,E,1,09,0.8,3.94,M,,,,*39
$GPRMC,081132.000,A,4340.2624,N,00719.9025,E,1.28,62.38,280714,,*36
$GPGGA,081142.000,4340.2621,N,00719.9008,E,1,09,0.8,3.59,M,,,,*35
$GPRMC,081142.000,A,4340.2621,N,00719.9008,E,1.01,212.42,280714,,*08
$GPGGA,081152.000,4340.2620,N,00719.8985,E,1,09,0.8,4.20,M,,,,*31
$GPRMC,081152.000,A,4340.2620,N,00719.8985,E,0.80,219.72,280714,,*05
$GPGGA,081202.000,4340.2622,N,00719.8973,E,1,09,0.8,5.08,M,,,,*37
$GPRMC,081202.000,A,4340.2622,N,00719.8973,E,0.52,297.06,280714,,*02
$GPGGA,081212.000,4340.2623,N,00719.8957,E,1,09,0.8,5.79,M,,,,*37
$GPRMC,081212.000,A,4340.2623,N,00719.8957,E,0.68,38.09,280714,,*35
$GPGGA,081222.000,4340.2617,N,00719.8942,E,1,08,1.0,5.58,M,,,,*3C
$GPRMC,081222.000,A,4340.2617,N,00719.8942,E,0.51,303.74,280714,,*0E
$GPGGA,081232.000,4340.2602,N,00719.8921,E,1,09,0.8,4.75,M,,,,*3A
$GPRMC,081232.000,A,4340.2602,N,00719.8921,E,0.35,268.53,280714,,*05
$GPGGA,081242.000,4340.2603,N,00719.8903,E,1,09,0.8,4.21,M,,,,*3D
$GPRMC,081242.000,A,4340.2603,N,00719.8903,E,0.47,326.06,280714,,*0D
$GPGGA,081252.000,4340.2651,N,00719.8847,E,1,09,0.8,3.36,M,,,,*3B
$GPRMC,081252.000,A,4340.2651,N,00719.8847,E,4.20,339.27,280714,,*02
$GPGGA,081302.000,4340.2627,N,00719.8846,E,1,09,0.8,3.06,M,,,,*3C
$GPRMC,081302.000,A,4340.2627,N,00719.8846,E,0.51,222.90,280714,,*03
$GPGGA,081312.000,4340.2604,N,00719.8844,E,1,09,0.8,2.68,M,,,,*37
$GPRMC,081312.000,A,4340.2604,N,00719.8844,E,0.16,288.63,280714,,*0E
$GPGGA,081322.000,4340.2593,N,00719.8821,E,1,09,0.8,4.49,M,,,,*3F
$GPRMC,081322.000,A,4340.2593,N,00719.8821,E,0.72,215.41,280714,,*05
$GPGGA,081332.000,4340.2587,N,00719.8810,E,1,09,0.8,4.82,M,,,,*3E
$GPRMC,081332.000,A,4340.2587,N,00719.8810,E,1.26,254.97,280714,,*0D
$GPGGA,081342.000,4340.2581,N,00719.8796,E,1,09,0.8,5.44,M,,,,*35
$GPRMC,081342.000,A,4340.2581,N,00719.8796,E,0.64,276.33,280714,,*04
$GPGGA,081352.000,4340.2581,N,00719.8767,E,1,09,0.8,4.54,M,,,,*3A
$GPRMC,081352.000,A,4340.2581,N,00719.8767,E,1.57,264.01,280714,,*08
$GPGGA,081402.000,4340.2584,N,00719.8733,E,1,09,0.8,2.87,M,,,,*34
$GPRMC,081402.000,A,4340.2584,N,00719.8733,E,2.16,255.86,280714,,*05
$GPGGA,081412.000,4340.2574,N,00719.8725,E,1,09,0.8,2.94,M,,,,*3F
$GPRMC,081412.000,A,4340.2574,N,00719.8725,E,0.62,153.32,280714,,*07
$GPGGA,081422.000,4340.2569,N,00719.8709,E,1,09,0.8,3.05,M,,,,*37
$GPRMC,081422.000,A,4340.2569,N,00719.8709,E,0.62,265.39,280714,,*0B
$GPGGA,081432.000,4340.2561,N,00719.8694,E,1,09,0.8,3.48,M,,,,*32
$GPRMC,081432.000,A,4340.2561,N,00719.8694,E,0.60,259.38,280714,,*0B
$GPGGA,081442.000,4340.2562,N,00719.8684,E,1,09,0.8,5.28,M,,,,*37
$GPRMC,081442.000,A,4340.2562,N,00719.8684,E,0.33,152.51,280714,,*0F
$GPGGA,081452.000,4340.2558,N,00719.8663,E,1,09,0.8,3.87,M,,,,*35
$GPRMC,081452.000,A,4340.2558,N,00719.8663,E,0.72,288.29,280714,,*00
$GPGGA,081502.000,4340.2553,N,00719.8641,E,1,09,0.8,4.85,M,,,,*3F
$GPRMC,081502.000,A,4340.2553,N,00719.8641,E,0.43,268.01,280714,,*09
$GPGGA,081512.000,4340.2541,N,00719.8630,E,1,08,0.8,2.90,M,,,,*38
$GPRMC,081512.000,A,4340.2541,N,00719.8630,E,0.43,181.58,280714,,*05
$GPGGA,081522.000,4340.2536,N,00719.8597,E,1,09,0.8,3.59,M,,,,*30
$GPRMC,081522.000,A,4340.2536,N,00719.8597,E,0.89,128.38,280714,,*0B
$GPGGA,081532.000,4340.2524,N,00719.8589,E,1,08,1.0,4.79,M,,,,*30
$GPRMC,081532.000,A,4340.2524,N,00719.8589,E,0.89,238.25,280714,,*08
$GPGGA,081542.000,4340.2533,N,00719.8583,E,1,08,1.0,5.06,M,,,,*32
$GPRMC,081542.000,A,4340.2533,N,00719.8583,E,1.48,308.25,280714,,*0D
$GPGGA,081552.000,4340.2540,N,00719.8576,E,1,08,1.0,4.61,M,,,,*3D
$GPRMC,081552.000,A,4340.2540,N,00719.8576,E,0.70,282.91,280714,,*04
$GPGGA,081602.000,4340.2536,N,00719.8555,E,1,08,1.0,4.88,M,,,,*3C
$GPRMC,081602.000,A,4340.2536,N,00719.8555,E,0.51,232.98,280714,,*03
$GPGGA,081612.000,4340.2540,N,00719.8531,E,1,08,1.0,5.42,M,,,,*39
$GPRMC,081612.000,A,4340.2540,N,00719.8531,E,0.45,347.29,280714,,*0D
$GPGGA,081622.000,4340.2540,N,00719.8515,E,1,07,1.0,5.60,M,,,,*33
$GPRMC,081622.000,A,4340.2540,N,00719.8515,E,0.14,329.67,280714,,*0E
$GPGGA,081632.000,4340.2532,N,00719.8499,E,1,08,1.0,5.23,M,,,,*3A
$GPRMC,081632.000,A,4340.2532,N,00719.8499,E,0.91,260.08,280714,,*07
$GPGGA,081642.000,4340.2524,N,00719.8479,E,1,08,1.0,3.29,M,,,,*38
$GPRMC,081642.000,A,4340.2524,N,00719.8479,E,1.22,251.25,280714,,*0D
$GPGGA,081652.000,4340.2525,N,00719.8450,E,1,08,1.0,5.10,M,,,,*3F
$GPRMC,081652.000,A,4340.2525,N,00719.8450,E,0.39,267.65,280714,,*0C
$GPGGA,081702.000,4340.2526,N,00719.8435,E,1,08,1.0,5.40,M,,,,*3E
$GPRMC,081702.000,A,4340.2526,N,00719.8435,E,0.43,56.09,280714,,*3F
$GPGGA,081712.000,4340.2526,N,00719.8413,E,1,08,1.0,5.32,M,,,,*3E
$GPRMC,081712.000,A,4340.2526,N,00719.8413,E,1.50,265.78,280714,,*0D
$GPGGA,081722.000,4340.2529,N,00719.8398,E,1,08,1.0,4.03,M,,,,*35
$GPRMC,081722.000,A,4340.2529,N,00719.8398,E,0.06,220.03,280714,,*0A
$GPGGA,081732.000,4340.2533,N,00719.8371,E,1,08,1.0,3.76,M,,,,*3D
$GPRMC,081732.000,A,4340.2533,N,00719.8371,E,1.52,295.64,280714,,*08
$GPGGA,081742.000,4340.2530,N,00719.8359,E,1,08,1.0,3.07,M,,,,*35
$GPRMC,081742.000,A,4340.2530,N,00719.8359,E,0.80,299.52,280714,,*01
$GPGGA,081752.000,4340.2530,N,00719.8338,E,1,08,1.0,3.58,M,,,,*39
$GPRMC,081752.000,A,4340.2530,N,00719.8338,E,1.15,3.49,280714,,*01
$GPGGA,081802.000,4340.2522,N,00719.8316,E,1,08,1.0,4.45,M,,,,*37
$GPRMC,081802.000,A,4340.2522,N,00719.8316,E,0.49,205.18,280714,,*0C
$GPGGA,081812.000,4340.2522,N,00719.8299,E,1,08,1.0,6.39,M,,,,*39
$GPRMC,081812.000,A,4340.2522,N,00719.8299,E,0.78,274.75,280714,,*04
$GPGGA,081822.000,4340.2514,N,00719.8299,E,1,08,1.0,7.22,M,,,,*34
$GPRMC,081822.000,A,4340.2514,N,00719.8299,E,0.41,276.43,280714,,*0F
$GPGGA,081832.000,4340.2519,N,00719.8287,E,1,08,1.0,6.88,M,,,,*36
$GPRMC,081832.000,A,4340.2519,N,00719.8287,E,0.72,252.98,280714,,*0C
$GPGGA,081842.000,4340.2519,N,00719.8270,E,1,08,1.0,5.93,M,,,,*30
$GPRMC,081842.000,A,4340.2519,N,00719.8270,E,1.01,356.56,280714,,*01
$GPGGA,081852.000,4340.2512,N,00719.8255,E,1,08,1.0,5.07,M,,,,*30
$GPRMC,081852.000,A,4340.2512,N,00719.8255,E,0.62,206.01,280714,,*0E
$GPGGA,081902.000,4340.2509,N,00719.8240,E,1,08,1.0,4.95,M,,,,*30
$GPRMC,081902.000,A,4340.2509,N,00719.8240,E,1.34,318.88,280714,,*09
$GPGGA,081912.000,4340.2506,N,00719.8216,E,1,08,1.0,5.48,M,,,,*3C
$GPRMC,081912.000,A,4340.2506,N,00719.8216,E,0.91,271.63,280714,,*01
$GPGGA,081922.000,4340.2503,N,00719.8197,E,1,08,1.0,5.93,M,,,,*36
$GPRMC,081922.000,A,4340.2503,N,00719.8197,E,0.31,189.72,280714,,*03
$GPGGA,081932.000,4340.2507,N,00719.8170,E,1,08,1.0,6.20,M,,,,*31
$GPRMC,081932.000,A,4340.2507,N,00719.8170,E,0.76,251.21,280714,,*0C
$GPGGA,081942.000,4340.2506,N,00719.8161,E,1,08,1.0,5.46,M,,,,*34
$GPRMC,081942.000,A,4340.2506,N,00719.8161,E,0.29,239.92,280714,,*06
$GPGGA,081952.000,4340.2499,N,00719.8133,E,1,08,1.0,5.36,M,,,,*32
$GPRMC,081952.000,A,4340.2499,N,00719.8133,E,0.76,298.83,280714,,*06
$GPGGA,082002.000,4340.2493,N,00719.8105,E,1,08,1.0,5.96,M,,,,*38
$GPRMC,082002.000,A,4340.2493,N,00719.8105,E,1.34,297.71,280714,,*03
$GPGGA,082012.000,4340.2494,N,00719.8092,E,1,08,1.0,5.75,M,,,,*3C
$GPRMC,082012.000,A,4340.2494,N,00719.8092,E,0.35,293.61,280714,,*0F
$GPGGA,082022.000,4340.2488,N,00719.8084,E,1,08,1.0,5.07,M,,,,*30
$GPRMC,082022.000,A,4340.2488,N,00719.8084,E,0.93,122.17,280714,,*02
$GPGGA,082032.000,4340.2484,N,00719.8072,E,1,08,1.0,4.93,M,,,,*38
$GPRMC,082032.000,A,4340.2484,N,00719.8072,E,0.87,251.52,280714,,*05
$GPGGA,082042.000,4340.2472,N,00719.8043,E,1,08,1.0,4.66,M,,,,*3E
$GPRMC,082042.000,A,4340.2472,N,00719.8043,E,0.56,251.01,280714,,*03
$GPGGA,082052.000,4340.2474,N,00719.8012,E,1,08,1.0,3.58,M,,,,*37
$GPRMC,082052.000,A,4340.2474,N,00719.8012,E,0.51,293.79,280714,,*06
$GPGGA,082102.000,4340.2472,N,00719.7984,E,1,08,1.0,3.84,M,,,,*3D
$GPRMC,082102.000,A,4340.2472,N,00719.7984,E,0.64,250.75,280714,,*08
$GPGGA,082112.000,4340.2474,N,00719.7951,E,1,08,1.0,3.96,M,,,,*31
$GPRMC,082112.000,A,4340.2474,N,00719.7951,E,0.74,289.84,280714,,*0C
$GPGGA,082122.000,4340.2471,N,00719.7923,E,1,08,1.0,3.99,M,,,,*3D
$GPRMC,082122.000,A,4340.2471,N,00719.7923,E,0.91,265.73,280714,,*0E
$GPGGA,082132.000,4340.2466,N,00719.7892,E,1,08,1.0,3.81,M,,,,*38
$GPRMC,082132.000,A,4340.2466,N,00719.7892,E,0.78,248.47,280714,,*0D
$GPGGA,082142.000,4340.2461,N,00719.7855,E,1,08,1.0,3.18,M,,,,*33
$GPRMC,082142.000,A,4340.2461,N,00719.7855,E,1.36,263.39,280714,,*0D
$GPGGA,082152.000,4340.2456,N,00719.7824,E,1,08,1.0,3.02,M,,,,*3B
$GPRMC,082152.000,A,4340.2456,N,00719.7824,E,0.66,279.59,280714,,*07
$GPGGA,082202.000,4340.2450,N,00719.7794,E,1,08,1.0,2.74,M,,,,*3F
$GPRMC,082202.000,A,4340.2450,N,00719.7794,E,0.80,229.28,280714,,*08
$GPGGA,082212.000,4340.2447,N,00719.7756,E,1,07,1.0,2.50,M,,,,*3F
$GPRMC,082212.000,A,4340.2447,N,00719.7756,E,0.74,282.31,280714,,*03
$GPGGA,082222.000,4340.2446,N,00719.7715,E,1,08,1.0,2.50,M,,,,*35
$GPRMC,082222.000,A,4340.2446,N,00719.7715,E,0.66,300.26,280714,,*08
$GPGGA,082232.000,4340.2446,N,00719.7674,E,1,08,1.0,2.65,M,,,,*34
$GPRMC,082232.000,A,4340.2446,N,00719.7674,E,0.70,230.75,280714,,*0C
$GPGGA,082242.000,4340.2444,N,00719.7642,E,1,08,1.0,2.97,M,,,,*39
$GPRMC,082242.000,A,4340.2444,N,00719.7642,E,0.52,218.14,280714,,*01
$GPGGA,082252.000,4340.2440,N,00719.7609,E,1,08,1.0,3.49,M,,,,*31
$GPRMC,082252.000,A,4340.2440,N,00719.7609,E,0.91,256.42,280714,,*0D
$GPGGA,082302.000,4340.2435,N,00719.7577,E,1,08,1.0,3.92,M,,,,*3B
$GPRMC,082302.000,A,4340.2435,N,00719.7577,E,0.51,284.77,280714,,*04
$GPGGA,082312.000,4340.2433,N,00719.7538,E,1,08,1.0,4.21,M,,,,*38
$GPRMC,082312.000,A,4340.2433,N,00719.7538,E,0.82,238.87,280714,,*0E
$GPGGA,082322.000,4340.2429,N,00719.7496,E,1,08,1.0,4.61,M,,,,*31
$GPRMC,082322.000,A,4340.2429,N,00719.7496,E,0.93,236.97,280714,,*0C
$GPGGA,082332.000,4340.2427,N,00719.7461,E,1,08,1.0,4.47,M,,,,*32
$GPRMC,082332.000,A,4340.2427,N,00719.7461,E,0.89,237.73,280714,,*0B
$GPGGA,082342.000,4340.2426,N,00719.7426,E,1,08,1.0,4.20,M,,,,*36
$GPRMC,082342.000,A,4340.2426,N,00719.7426,E,0.66,261.30,280714,,*0B
$GPGGA,082352.000,4340.2424,N,00719.7386,E,1,08,1.0,4.09,M,,,,*33
$GPRMC,082352.000,A,4340.2424,N,00719.7386,E,1.09,266.74,280714,,*0A
$GPGGA,082402.000,4340.2420,N,00719.7343,E,1,08,1.0,3.87,M,,,,*3D
$GPRMC,082402.000,A,4340.2420,N,00719.7343,E,0.84,256.18,280714,,*08
$GPGGA,082412.000,4340.2412,N,00719.7298,E,1,07,1.0,3.82,M,,,,*30
$GPRMC,082412.000,A,4340.2412,N,00719.7298,E,1.17,267.66,280714,,*0F
$GPGGA,082422.000,4340.2402,N,00719.7268,E,1,07,1.0,3.24,M,,,,*31
$GPRMC,082422.000,A,4340.2402,N,00719.7268,E,1.05,288.79,280714,,*0E
$GPGGA,082432.000,4340.2400,N,00719.7242,E,1,06,1.8,3.11,M,,,,*35
$GPRMC,082432.000,A,4340.2400,N,00719.7242,E,0.86,191.15,280714,,*0E
$GPGGA,082442.000,4340.2406,N,00719.7212,E,1,07,1.0,3.93,M,,,,*32
$GPRMC,082442.000,A,4340.2406,N,00719.7212,E,0.54,292.33,280714,,*01
$GPGGA,082452.000,4340.2412,N,00719.7199,E,1,07,1.0,4.59,M,,,,*37
$GPRMC,082452.000,A,4340.2412,N,00719.7199,E,0.14,249.69,280714,,*08
$GPGGA,082502.000,4340.2411,N,00719.7188,E,1,07,1.0,3.68,M,,,,*35
$GPRMC,082502.000,A,4340.2411,N,00719.7188,E,0.41,313.50,280714,,*0B
$GPGGA,082512.000,4340.2406,N,00719.7164,E,1,07,1.0,4.34,M,,,,*3E
$GPRMC,082512.000,A,4340.2406,N,00719.7164,E,1.28,270.42,280714,,*07
$GPGGA,082522.000,4340.2399,N,00719.7142,E,1,07,1.0,3.80,M,,,,*30
$GPRMC,082522.000,A,4340.2399,N,00719.7142,E,1.69,225.90,280714,,*0B
$GPGGA,082532.000,4340.2388,N,00719.7128,E,1,07,1.0,3.53,M,,,,*33
$GPRMC,082532.000,A,4340.2388,N,00719.7128,E,0.56,198.51,280714,,*03
$GPGGA,082542.000,4340.2382,N,00719.7133,E,1,07,1.0,4.28,M,,,,*3F
$GPRMC,082542.000,A,4340.2382,N,00719.7133,E,0.33,98.26,280714,,*36
$GPGGA,082552.000,4340.2383,N,00719.7117,E,1,07,1.0,4.89,M,,,,*32
$GPRMC,082552.000,A,4340.2383,N,00719.7117,E,0.95,288.20,280714,,*09
$GPGGA,082602.000,4340.2381,N,00719.7096,E,1,07,1.0,5.76,M,,,,*3F
$GPRMC,082602.000,A,4340.2381,N,00719.7096,E,0.43,268.20,280714,,*00
$GPGGA,082612.000,4340.2378,N,00719.7065,E,1,07,1.0,5.29,M,,,,*3E
$GPRMC,082612.000,A,4340.2378,N,00719.7065,E,0.97,307.78,280714,,*07
$GPGGA,082622.000,4340.2378,N,00719.7043,E,1,07,1.0,3.63,M,,,,*31
$GPRMC,082622.000,A,4340.2378,N,00719.7043,E,1.50,208.82,280714,,*01
$GPGGA,082632.000,4340.2388,N,00719.7030,E,1,07,1.0,2.42,M,,,,*39
$GPRMC,082632.000,A,4340.2388,N,00719.7030,E,1.89,0.09,280714,,*06
$GPGGA,082642.000,4340.2379,N,00719.7004,E,1,07,1.0,2.08,M,,,,*39
$GPRMC,082642.000,A,4340.2379,N,00719.7004,E,0.60,249.67,280714,,*09
$GPGGA,082652.000,4340.2369,N,00719.6974,E,1,07,1.0,2.71,M,,,,*38
$GPRMC,082652.000,A,4340.2369,N,00719.6974,E,1.65,236.93,280714,,*01
$GPGGA,082702.000,4340.2368,N,00719.6959,E,1,07,1.0,4.32,M,,,,*33
$GPRMC,082702.000,A,4340.2368,N,00719.6959,E,0.68,296.48,280714,,*0B
$GPGGA,082712.000,4340.2366,N,00719.6944,E,1,07,1.0,5.92,M,,,,*3B
$GPRMC,082712.000,A,4340.2366,N,00719.6944,E,1.19,267.66,280714,,*0D
$GPGGA,082722.000,4340.2365,N,00719.6935,E,1,07,1.0,5.19,M,,,,*3E
$GPRMC,082722.000,A,4340.2365,N,00719.6935,E,0.62,346.05,280714,,*01
$GPGGA,082732.000,4340.2364,N,00719.6908,E,1,06,1.0,4.52,M,,,,*3F
$GPRMC,082732.000,A,4340.2364,N,00719.6908,E,0.76,172.18,280714,,*03
$GPGGA,082742.000,4340.2363,N,00719.6892,E,1,07,1.0,3.27,M,,,,*39
$GPRMC,082742.000,A,4340.2363,N,00719.6892,E,0.43,287.27,280714,,*02
$GPGGA,082752.000,4340.2359,N,00719.6864,E,1,07,1.0,4.99,M,,,,*3A
$GPRMC,082752.000,A,4340.2359,N,00719.6864,E,0.80,266.90,280714,,*0F
$GPGGA,082802.000,4340.2358,N,00719.6845,E,1,07,1.0,5.39,M,,,,*39
$GPRMC,082802.000,A,4340.2358,N,00719.6845,E,0.87,254.96,280714,,*07
$GPGGA,082812.000,4340.2352,N,00719.6827,E,1,07,1.0,4.36,M,,,,*38
$GPRMC,082812.000,A,4340.2352,N,00719.6827,E,0.87,230.02,280714,,*07
$GPGGA,082822.000,4340.2344,N,00719.6805,E,1,07,1.0,2.78,M,,,,*30
$GPRMC,082822.000,A,4340.2344,N,00719.6805,E,1.19,252.56,280714,,*00
$GPGGA,082832.000,4340.2347,N,00719.6783,E,1,07,1.0,3.45,M,,,,*3C
$GPRMC,082832.000,A,4340.2347,N,00719.6783,E,1.79,260.75,280714,,*05
$GPGGA,082842.000,4340.2354,N,00719.6770,E,1,07,1.0,5.74,M,,,,*31
$GPRMC,082842.000,A,4340.2354,N,00719.6770,E,0.37,65.14,280714,,*37
$GPGGA,082852.000,4340.2348,N,00719.6756,E,1,07,1.0,6.18,M,,,,*30
$GPRMC,082852.000,A,4340.2348,N,00719.6756,E,0.12,285.77,280714,,*01
$GPGGA,082902.000,4340.2343,N,00719.6739,E,1,07,1.0,5.33,M,,,,*3C
$GPRMC,082902.000,A,4340.2343,N,00719.6739,E,0.95,230.97,280714,,*08
$GPGGA,082912.000,4340.2341,N,00719.6716,E,1,07,1.0,5.04,M,,,,*36
$GPRMC,082912.000,A,4340.2341,N,00719.6716,E,1.46,251.86,280714,,*0E
$GPGGA,082922.000,4340.2335,N,00719.6697,E,1,07,1.0,1.93,M,,,,*34
$GPRMC,082922.000,A,4340.2335,N,00719.6697,E,0.43,227.92,280714,,*06
$GPGGA,082932.000,4340.2335,N,00719.6688,E,1,07,1.0,2.30,M,,,,*31
$GPRMC,082932.000,A,4340.2335,N,00719.6688,E,0.51,69.40,280714,,*3D
$GPGGA,082942.000,4340.2334,N,00719.6655,E,1,07,1.0,3.61,M,,,,*32
$GPRMC,082942.000,A,4340.2334,N,00719.6655,E,0.91,230.80,280714,,*05
$GPGGA,082952.000,4340.2333,N,00719.6644,E,1,07,1.0,3.45,M,,,,*32
$GPRMC,082952.000,A,4340.2333,N,00719.6644,E,0.84,318.53,280714,,*02
$GPGGA,083002.000,4340.2329,N,00719.6631,E,1,07,1.0,4.19,M,,,,*38
$GPRMC,083002.000,A,4340.2329,N,00719.6631,E,0.49,355.42,280714,,*0E
$GPGGA,083012.000,4340.2329,N,00719.6614,E,1,07,1.0,5.45,M,,,,*36
$GPRMC,083012.000,A,4340.2329,N,00719.6614,E,0.99,347.92,280714,,*0B
$GPGGA,083022.000,4340.2330,N,00719.6597,E,1,07,1.0,5.55,M,,,,*34
$GPRMC,083022.000,A,4340.2330,N,00719.6597,E,0.72,300.96,280714,,*0A
$GPGGA,083032.000,4340.2326,N,00719.6573,E,1,07,1.0,5.08,M,,,,*30
$GPRMC,083032.000,A,4340.2326,N,00719.6573,E,1.05,302.48,280714,,*06
$GPGGA,083042.000,4340.2324,N,00719.6554,E,1,07,1.0,4.71,M,,,,*3F
$GPRMC,083042.000,A,4340.2324,N,00719.6554,E,0.76,252.80,280714,,*03
$GPGGA,083052.000,4340.2326,N,00719.6545,E,1,07,1.0,5.23,M,,,,*3A
$GPRMC,083052.000,A,4340.2326,N,00719.6545,E,0.93,329.22,280714,,*0E
$GPGGA,083102.000,4340.2325,N,00719.6518,E,1,06,1.0,4.06,M,,,,*32
$GPRMC,083102.000,A,4340.2325,N,00719.6518,E,0.80,273.87,280714,,*02
$GPGGA,083112.000,4340.2325,N,00719.6502,E,1,07,1.0,2.92,M,,,,*32
$GPRMC,083112.000,A,4340.2325,N,00719.6502,E,0.70,264.31,280714,,*0C
$GPGGA,083122.000,4340.2325,N,00719.6479,E,1,07,1.0,3.30,M,,,,*35
$GPRMC,083122.000,A,4340.2325,N,00719.6479,E,0.60,257.58,280714,,*0C
$GPGGA,083132.000,4340.2322,N,00719.6460,E,1,07,1.0,4.64,M,,,,*3D
$GPRMC,083132.000,A,4340.2322,N,00719.6460,E,0.31,339.40,280714,,*06
$GPGGA,083142.000,4340.2325,N,00719.6434,E,1,07,1.0,4.32,M,,,,*3F
$GPRMC,083142.000,A,4340.2325,N,00719.6434,E,0.62,253.58,280714,,*05
$GPGGA,083152.000,4340.2329,N,00719.6407,E,1,07,1.0,4.63,M,,,,*36
$GPRMC,083152.000,A,4340.2329,N,00719.6407,E,1.21,255.04,280714,,*01
$GPGGA,083202.000,4340.2323,N,00719.6389,E,1,07,1.0,4.04,M,,,,*3A
$GPRMC,083202.000,A,4340.2323,N,00719.6389,E,0.76,267.85,280714,,*07
$GPGGA,083212.000,4340.2321,N,00719.6369,E,1,07,1.0,4.18,M,,,,*3A
$GPRMC,083212.000,A,4340.2321,N,00719.6369,E,2.00,281.74,280714,,*0F
$GPGGA,083222.000,4340.2319,N,00719.6344,E,1,07,1.0,4.30,M,,,,*37
$GPRMC,083222.000,A,4340.2319,N,00719.6344,E,1.59,265.78,280714,,*01
$GPGGA,083232.000,4340.2321,N,00719.6335,E,1,07,1.0,5.23,M,,,,*38
$GPRMC,083232.000,A,4340.2321,N,00719.6335,E,0.39,343.41,280714,,*05
$GPGGA,083242.000,4340.2317,N,00719.6318,E,1,07,1.0,5.14,M,,,,*31
$GPRMC,083242.000,A,4340.2317,N,00719.6318,E,0.19,116.48,280714,,*01
$GPGGA,083252.000,4340.2319,N,00719.6301,E,1,07,1.0,5.30,M,,,,*30
$GPRMC,083252.000,A,4340.2319,N,00719.6301,E,0.23,286.44,280714,,*09
$GPGGA,083302.000,4340.2319,N,00719.6287,E,1,07,1.0,4.86,M,,,,*37
$GPRMC,083302.000,A,4340.2319,N,00719.6287,E,0.74,273.51,280714,,*0E
$GPGGA,083312.000,4340.2315,N,00719.6268,E,1,07,1.0,4.65,M,,,,*36
$GPRMC,083312.000,A,4340.2315,N,00719.6268,E,0.86,275.62,280714,,*09
$GPGGA,083322.000,4340.2317,N,00719.6249,E,1,07,1.0,5.49,M,,,,*3B
$GPRMC,083322.000,A,4340.2317,N,00719.6249,E,0.66,334.75,280714,,*07
$GPGGA,083332.000,4340.2317,N,00719.6227,E,1,07,1.0,5.51,M,,,,*3B
$GPRMC,083332.000,A,4340.2317,N,00719.6227,E,0.76,253.42,280714,,*0B
$GPGGA,083342.000,4340.2308,N,00719.6217,E,1,07,1.0,5.50,M,,,,*30
$GPRMC,083342.000,A,4340.2308,N,00719.6217,E,0.35,179.14,280714,,*0E
$GPGGA,083352.000,4340.2307,N,00719.6201,E,1,06,1.0,6.12,M,,,,*3D
$GPRMC,083352.000,A,4340.2307,N,00719.6201,E,0.16,47.86,280714,,*31
$GPGGA,083402.000,4340.2303,N,00719.6185,E,1,06,1.0,6.80,M,,,,*3F
$GPRMC,083402.000,A,4340.2303,N,00719.6185,E,0.29,283.62,280714,,*04
$GPGGA,083412.000,4340.2303,N,00719.6169,E,1,06,1.0,6.74,M,,,,*37
$GPRMC,083412.000,A,4340.2303,N,00719.6169,E,0.39,231.53,280714,,*0D
$GPGGA,083422.000,4340.2309,N,00719.6141,E,1,06,1.0,7.72,M,,,,*33
$GPRMC,083422.000,A,4340.2309,N,00719.6141,E,0.60,244.71,280714,,*00
$GPGGA,083432.000,4340.2312,N,00719.6116,E,1,06,1.0,7.80,M,,,,*37
$GPRMC,083432.000,A,4340.2312,N,00719.6116,E,1.56,303.94,280714,,*04
$GPGGA,083442.000,4340.2315,N,00719.6093,E,1,06,1.0,7.70,M,,,,*34
$GPRMC,083442.000,A,4340.2315,N,00719.6093,E,1.05,297.18,280714,,*06
$GPGGA,083452.000,4340.2313,N,00719.6077,E,1,06,1.0,6.75,M,,,,*3D
$GPRMC,083452.000,A,4340.2313,N,00719.6077,E,0.51,241.58,280714,,*04
$GPGGA,083502.000,4340.2302,N,00719.6060,E,1,06,1.0,6.65,M,,,,*3E
$GPRMC,083502.000,A,4340.2302,N,00719.6060,E,0.70,207.83,280714,,*01
$GPGGA,083512.000,4340.2303,N,00719.6040,E,1,06,1.0,5.06,M,,,,*3A
$GPRMC,083512.000,A,4340.2303,N,00719.6040,E,0.66,276.98,280714,,*08
$GPGGA,083522.000,4340.2306,N,00719.6010,E,1,06,1.0,4.12,M,,,,*3D
$GPRMC,083522.000,A,4340.2306,N,00719.6010,E,1.36,291.35,280714,,*01
$GPGGA,083532.000,4340.2309,N,00719.5998,E,1,05,2.0,4.29,M,,,,*31
$GPRMC,083532.000,A,4340.2309,N,00719.5998,E,0.74,310.60,280714,,*0A
$GPGGA,083542.000,4340.2311,N,00719.5976,E,1,07,1.0,4.73,M,,,,*31
$GPRMC,083542.000,A,4340.2311,N,00719.5976,E,0.87,270.93,280714,,*03
$GPGGA,083552.000,4340.2312,N,00719.5951,E,1,07,1.0,4.45,M,,,,*33
$GPRMC,083552.000,A,4340.2312,N,00719.5951,E,1.11,236.68,280714,,*0C
$GPGGA,083602.000,4340.2314,N,00719.5938,E,1,07,1.0,5.20,M,,,,*3E
$GPRMC,083602.000,A,4340.2314,N,00719.5938,E,0.93,216.10,280714,,*05
$GPGGA,083612.000,4340.2316,N,00719.5911,E,1,07,1.0,5.96,M,,,,*3B
$GPRMC,083612.000,A,4340.2316,N,00719.5911,E,2.10,288.45,280714,,*03
$GPGGA,083622.000,4340.2316,N,00719.5891,E,1,07,1.0,5.65,M,,,,*3D
$GPRMC,083622.000,A,4340.2316,N,00719.5891,E,1.75,349.80,280714,,*0C
$GPGGA,083632.000,4340.2311,N,00719.5862,E,1,07,1.0,7.05,M,,,,*33
$GPRMC,083632.000,A,4340.2311,N,00719.5862,E,0.82,205.62,280714,,*0A
$GPGGA,083642.000,4340.2306,N,00719.5851,E,1,07,1.0,7.40,M,,,,*33
$GPRMC,083642.000,A,4340.2306,N,00719.5851,E,1.01,247.45,280714,,*02
$GPGGA,083652.000,4340.2307,N,00719.5833,E,1,07,1.0,8.12,M,,,,*3F
$GPRMC,083652.000,A,4340.2307,N,00719.5833,E,1.96,282.17,280714,,*06
$GPGGA,083702.000,4340.2314,N,00719.5813,E,1,07,1.0,8.30,M,,,,*3B
$GPRMC,083702.000,A,4340.2314,N,00719.5813,E,0.99,288.02,280714,,*02
$GPGGA,083712.000,4340.2313,N,00719.5795,E,1,07,1.0,8.68,M,,,,*31
$GPRMC,083712.000,A,4340.2313,N,00719.5795,E,0.82,245.64,280714,,*0E
$GPGGA,083722.000,4340.2314,N,00719.5783,E,1,07,1.0,8.90,M,,,,*35
$GPRMC,083722.000,A,4340.2314,N,00719.5783,E,0.39,339.33,280714,,*05
$GPGGA,083732.000,4340.2311,N,00719.5748,E,1,07,1.0,8.42,M,,,,*39
$GPRMC,083732.000,A,4340.2311,N,00719.5748,E,1.19,243.16,280714,,*0E
$GPGGA,083742.000,4340.2313,N,00719.5735,E,1,07,1.0,8.56,M,,,,*33
$GPRMC,083742.000,A,4340.2313,N,00719.5735,E,0.56,109.74,280714,,*02
$GPGGA,083752.000,4340.2305,N,00719.5717,E,1,07,1.0,8.51,M,,,,*32
$GPRMC,083752.000,A,4340.2305,N,00719.5717,E,0.89,148.99,280714,,*00
$GPGGA,083802.000,4340.2305,N,00719.5692,E,1,07,1.0,8.87,M,,,,*3F
